'{"key":"A. Walker Allen 2015","values":[{"name":"A. Walker Allen","context":111,"ranking":81,"round":"R16","rung":3,"category":"14","draw":16,"rank":"666.6666666666666","lat":"45.8","long":"16","date":"2015-12-25T23:00:00.000Z","yr":2015,"tourn":"DV. BABOLAT ZAGI KUP","clubs":[{"name":"Vulpes","county":"Gr. ZagrebZagreb","zipcode":"10000","city":"Zagreb","address":"Nova cesta 44","email":"darija.deskovic@zg.t-com.hr","phone":"(01)382 1309","mobile":"(098)354 777","long":"16","lat":"45.8","abbr":"VUL"},{"name":"Mladost","county":"Gr. ZagrebZagreb","zipcode":"10000","city":"Zagreb","address":"Jarunska 5","email":"hatkmladost1@gmail.com","phone":"(01)3647 596","mobile":"(095)586 7222","long":"16","lat":"45.8","abbr":"MLD"},{"name":"Kastav","county":"Prim.-gor.Istra i Primorje","zipcode":"51215","city":"Kastav","address":"Rudno bb","email":"juracic1@gmail.com","phone":"(051)256 068","mobile":"(098)546 561","long":"14.348611","lat":"45.375278","abbr":"KST"},{"name":"Iteam","county":"Gr. ZagrebZagreb","zipcode":"10000","city":"Zagreb","address":"Vrbaniceva 31","email":"teniskiklub.iteam@gmail.com","phone":"ceva 31(091)569 7447","mobile":"(098) 824 003","long":"16","lat":"45.8","abbr":"ITE"},{"name":"Mladost-Akademicar","county":"Gr. ZagrebZagreb","zipcode":"10000","city":"Zagreb","address":"Jarunska 5","email":"tajnistvo@hatk-mladost-akademicar.hr","phone":"(099)235 5255","mobile":"(099)235 5255","long":"16","lat":"45.8","abbr":"MAK"},{"name":"Medvescak","county":"Gr. ZagrebZagreb","zipcode":"10000","city":"Zagreb","address":"Schlosserove stube 2","email":"8003tk-medvescak@tk-medvescak.hr","phone":"(01)455 0657","mobile":"(091)568 4958","website":"www.tk-medvescak.hr","long":"16","lat":"45.8","abbr":"MDV"},{"name":"Stobrec","county":"Split.-dalm.Dalmacija","zipcode":"21311","city":"Stobrec","address":"Put svetog Lovre 45b","email":"tc-stobrec@st.t-com.hr","phone":"(021)325 064","long":"16.522222","lat":"43.5025","abbr":"STO"},{"name":"Zar","county":"Gr. ZagrebZagreb","zipcode":"10000","city":"Zagreb","address":"Livadiceva 11","email":"teniski.klub.zar@gmail.com","phone":"ceva 11(01)230 2659","mobile":"(091)521 2222","long":"16","lat":"45.8","abbr":"ZAR"},{"name":"Varteks","county":"VarazdinskaSjeverozapadna","zipcode":"42000","city":"Varazdin","address":"Zagrebacka 91b","email":"tk.varteks@vz.t-com.hr","phone":"cka 91b(042)241 766","mobile":"(098)284 754","long":"16.337778","lat":"46.304444","abbr":"VAR"},{"name":"Movens","county":"Gr. ZagrebZagreb","zipcode":"10090","city":"Zagreb","address":"Hrelicka zavrtnica 13","email":"marko@tk-movens.hr","phone":"cka zavrtnica 13(01)557 8433","mobile":"(098)664 982","website":"www.tk-movens.hr","long":"16","lat":"45.8","abbr":"MOV"},{"name":"Losinj-Jadranka","county":"Prim.-gor.Istra i Primorje","zipcode":"51550","city":"Mali Losinj","address":"Suncana uvala bb","email":"jadranko.visak@ri.t-com.hr","phone":"cana uvala bb(051)232 014","mobile":"(098)259 248","long":"14.468611","lat":"44.530556","abbr":"LJD"}],"surface":"hardcourt"},{"name":"A. Walker Allen","context":264,"ranking":26,"round":"R32","rung":2,"category":"12","draw":32,"rank":"1111.111111111111","lat":"45.8","long":"16","date":"2015-12-11T23:00:00.000Z","yr":2015,"tourn":"Babolat Zagi kup","clubs":[{"name":"Vulpes","county":"Gr. ZagrebZagreb","zipcode":"10000","city":"Zagreb","address":"Nova cesta 44","email":"darija.deskovic@zg.t-com.hr","phone":"(01)382 1309","mobile":"(098)354 777","long":"16","lat":"45.8","abbr":"VUL"},{"name":"Zagi","county":"Gr. ZagrebZagreb","zipcode":"10000","city":"Zagreb","address":"Havidiceva 38","email":"zagi_sport@inet.hr","phone":"ceva 38(01)665 8448","mobile":"(091)660 0811","website":"www.zagi-sport.hr","long":"16","lat":"45.8","abbr":"ZGI"},{"name":"Iteam","county":"Gr. ZagrebZagreb","zipcode":"10000","city":"Zagreb","address":"Vrbaniceva 31","email":"teniskiklub.iteam@gmail.com","phone":"ceva 31(091)569 7447","mobile":"(098) 824 003","long":"16","lat":"45.8","abbr":"ITE"},{"name":"Precko","county":"Gr. Zagreb","zipcode":"10000","city":"Zagreb","address":"Dekanici bb","email":"tenis.klub.precko@zg.t-com.hr","phone":"ci bb(01)388 5495","mobile":"(091)501 5457","long":"16","lat":"45.8","abbr":"PRE"},{"name":"Chromos-Savica","county":"Gr. ZagrebZagreb","zipcode":"10000","city":"Zagreb","address":"Prisavlje bb","email":"dsrt@zg.t-com.hr","phone":"(01)604 3006","mobile":"(091)220 5660","long":"16","lat":"45.8","abbr":"CHS"},{"name":"Dakovo","county":"Osjecko.-baSlavonija","zipcode":"31400","city":"Dakovo","address":"Ljudevita Gaja bb","email":"dario","phone":"(031)812 342","mobile":".jagodic@gmail.com(098)123 2088","long":"18.410556","lat":"45.308333","abbr":"DJA"},{"name":"Mladost-Akademicar","county":"Gr. ZagrebZagreb","zipcode":"10000","city":"Zagreb","address":"Jarunska 5","email":"tajnistvo@hatk-mladost-akademicar.hr","phone":"(099)235 5255","mobile":"(099)235 5255","long":"16","lat":"45.8","abbr":"MAK"},{"name":"Pro 2000","county":"IstarskaIstra i Primorje","zipcode":"52450","city":"Porec","address":"Trg trsine 10","email":"juraj.dusparic@hotmail.com","phone":"(052)442 013","mobile":"(091)518 8208","long":"17.928056","lat":"45.367778","abbr":"PRO"},{"name":"Nova Gradiska","county":"Brod.-posav.Slavonija","zipcode":"35400","city":"Nova Gradiska","address":"Trg Kralja Tomislava 5/1","email":"markobrcic@gmail.com","phone":"(095)837 ","long":"17.383056","lat":"45.255","abbr":"NOG"},{"name":"Stobrec","county":"Split.-dalm.Dalmacija","zipcode":"21311","city":"Stobrec","address":"Put svetog Lovre 45b","email":"tc-stobrec@st.t-com.hr","phone":"(021)325 064","long":"16.522222","lat":"43.5025","abbr":"STO"},{"name":"Zapresic","county":"Zup.zagreb.Sredisnja","zipcode":"10290","city":"Zapresic","address":"Mirka Bogovica 53a","email":"petarlacy@gmail.com","phone":"ca 53a(01)339 0010","mobile":"(098)221 795","long":"15.807778","lat":"45.856389","abbr":"ZPR"},{"name":"Varazdin 1181","county":"VarazdinskaSjeverozapadna","zipcode":"42000","city":"Varazdin","address":"Miroslava Krleze 1a","email":"14 940lovro_juzbasic@net.hr","phone":"(095)905 1084","mobile":"(095)905 1084","website":"www.tk-varazdin1181.hr  ","long":"16.337778","lat":"46.304444","abbr":"VZD"},{"name":"Ragusa","county":"Dubr.-neret.Dalmacija","zipcode":"20000","city":"Dubrovnik","address":"Liechtensteinov put 10","email":"info@dubrovniktenis.com","phone":"(099)331 0199","mobile":"(091)486 3450","long":"18.091389","lat":"42.650556","abbr":"RGS"},{"name":"Ogulin","county":"KarlovackaSredisnja","zipcode":"47300","city":"Ogulin","address":"Bolnicka bb","email":"zsug.ogulina@ka.t-com.hr","phone":"cka bb(047)531 970","mobile":"(091)152 2584","long":"15.228611","lat":"45.266111","abbr":"OG"}],"surface":"hardcourt"},{"name":"A. Walker Allen","context":268,"ranking":26,"round":"R16","rung":3,"category":"12","draw":32,"rank":"1111.111111111111","lat":"45.8","long":"16","date":"2015-12-04T23:00:00.000Z","yr":2015,"tourn":"Dv. OP NTC-a ","clubs":[{"name":"HTK Zagreb","county":"Gr. ZagrebZagreb","zipcode":"10000","city":"Zagreb","address":"Metalceva bb","email":"htk.zagreb@zg.t-com.hr","phone":"ceva bb(01)301 1045","mobile":"(098)275 319","long":"16","lat":"45.8","abbr":"HTK"},{"name":"Vulpes","county":"Gr. ZagrebZagreb","zipcode":"10000","city":"Zagreb","address":"Nova cesta 44","email":"darija.deskovic@zg.t-com.hr","phone":"(01)382 1309","mobile":"(098)354 777","long":"16","lat":"45.8","abbr":"VUL"},{"name":"Precko","county":"Gr. Zagreb","zipcode":"10000","city":"Zagreb","address":"Dekanici bb","email":"tenis.klub.precko@zg.t-com.hr","phone":"ci bb(01)388 5495","mobile":"(091)501 5457","long":"16","lat":"45.8","abbr":"PRE"},{"name":"Mladost-Akademicar","county":"Gr. ZagrebZagreb","zipcode":"10000","city":"Zagreb","address":"Jarunska 5","email":"tajnistvo@hatk-mladost-akademicar.hr","phone":"(099)235 5255","mobile":"(099)235 5255","long":"16","lat":"45.8","abbr":"MAK"},{"name":"Iteam","county":"Gr. ZagrebZagreb","zipcode":"10000","city":"Zagreb","address":"Vrbaniceva 31","email":"teniskiklub.iteam@gmail.com","phone":"ceva 31(091)569 7447","mobile":"(098) 824 003","long":"16","lat":"45.8","abbr":"ITE"},{"name":"Neptun 2008","county":"Osjecko.-baSlavonija","zipcode":"31000","city":"Osijek","address":"Naselje Vladimira Nazora 14","email":"sapejic@gmail.com","phone":"(031) 207 553","long":"16.55","lat":"46.133333","abbr":"NEP"},{"name":"Olimpija Osijek 1984","county":"Osjecko.-baSlavonija","zipcode":"31000","city":"Osijek","address":"Ulica Olimpije 2","email":"wagnerdomagoj@gmail.com","phone":"(095)701 0001","mobile":"(095)701 0001","long":"16.55","lat":"46.133333","abbr":"OLI"},{"name":"Chromos-Savica","county":"Gr. ZagrebZagreb","zipcode":"10000","city":"Zagreb","address":"Prisavlje bb","email":"dsrt@zg.t-com.hr","phone":"(01)604 3006","mobile":"(091)220 5660","long":"16","lat":"45.8","abbr":"CHS"},{"name":"Zagi","county":"Gr. ZagrebZagreb","zipcode":"10000","city":"Zagreb","address":"Havidiceva 38","email":"zagi_sport@inet.hr","phone":"ceva 38(01)665 8448","mobile":"(091)660 0811","website":"www.zagi-sport.hr","long":"16","lat":"45.8","abbr":"ZGI"},{"name":"Stobrec","county":"Split.-dalm.Dalmacija","zipcode":"21311","city":"Stobrec","address":"Put svetog Lovre 45b","email":"tc-stobrec@st.t-com.hr","phone":"(021)325 064","long":"16.522222","lat":"43.5025","abbr":"STO"},{"name":"Top Spin","county":"Gr. ZagrebZagreb","zipcode":"10000","city":"Zagreb","address":"Vlaska 83/1","email":"office@topspin.hr   ","phone":"(01)369 3690","mobile":"(098)980 6031 ","website":"www.tktopspin.hr.","long":"16","lat":"45.8","abbr":"TSP"},{"name":"San Spin","county":"Gr. ZagrebZagreb","zipcode":"10040","city":"Zagreb","address":"Mirosevecina 2","email":"san-spin@zg.htnet.hr","phone":"cina 2(01)298 5363","mobile":"(091)171 4239","website":"www.san-spin.hr","long":"16","lat":"45.8","abbr":"SSP"},{"name":"Ogulin","county":"KarlovackaSredisnja","zipcode":"47300","city":"Ogulin","address":"Bolnicka bb","email":"zsug.ogulina@ka.t-com.hr","phone":"cka bb(047)531 970","mobile":"(091)152 2584","long":"15.228611","lat":"45.266111","abbr":"OG"},{"name":"Futur","county":"Gr. ZagrebZagreb","zipcode":"10000","city":"Zagreb","address":"Vinogradi 46","email":"hrvoje@tenis-lav.hr","phone":"(01)373 4986","mobile":"(098)389 220","website":"www.tenis-lav.hr","long":"16","lat":"45.8","abbr":"FUT"},{"name":"Zadar 08","county":"ZadarskaDalmacija","zipcode":"23000","city":"Zadar","address":"Frana Supila 16","email":"lovro_r@yahoo.com","phone":"(098)172 0228","mobile":"(098)172 0228","long":"15.242222","lat":"44.119722","abbr":"ZAD"},{"name":"Vinkovci","county":"Vuk.-srijem.Slavonija","zipcode":"32100","city":"Vinkovci","address":"SRC Lenije bb","email":"tk.vinkovci@vk.t-com.hr","phone":"(032)306 192","mobile":"(098)167 0364","website":"www.tk-vinkovci.hr","long":"18.804722","lat":"45.288333","abbr":"VK"},{"name":"Nova Gradiska","county":"Brod.-posav.Slavonija","zipcode":"35400","city":"Nova Gradiska","address":"Trg Kralja Tomislava 5/1","email":"markobrcic@gmail.com","phone":"(095)837 ","long":"17.383056","lat":"45.255","abbr":"NOG"},{"name":"Dakovo","county":"Osjecko.-baSlavonija","zipcode":"31400","city":"Dakovo","address":"Ljudevita Gaja bb","email":"dario","phone":"(031)812 342","mobile":".jagodic@gmail.com(098)123 2088","long":"18.410556","lat":"45.308333","abbr":"DJA"}],"surface":"hardcourt"},{"name":"A. Walker Allen","context":120,"ranking":90,"round":"QF","rung":4,"category":"14","draw":32,"rank":"1111.111111111111","lat":"44.119722","long":"15.242222","date":"2015-11-27T23:00:00.000Z","yr":2015,"tourn":"Dv. OP TK DALMACIJA","clubs":[{"name":"Vulpes","county":"Gr. ZagrebZagreb","zipcode":"10000","city":"Zagreb","address":"Nova cesta 44","email":"darija.deskovic@zg.t-com.hr","phone":"(01)382 1309","mobile":"(098)354 777","long":"16","lat":"45.8","abbr":"VUL"},{"name":"Kvarner","county":"Prim.-gor.Istra i Primorje","zipcode":"51000","city":"Rijeka","address":"Ede Jardasa 27a","email":"tenis-klub-kvarner@ri.htnet.hr","phone":"(051)621 601","mobile":"(095)906 9587","website":"www.tkk.hr","long":"14.409167","lat":"45.343056","abbr":"KVA"},{"name":"Rab","county":"Prim.-gor.Istra i Primorje","zipcode":"51280","city":"Rab","address":"Barbat 600","email":"duje.severdija@grad-rab.com","phone":"(098)261 005","mobile":"(098)261 005","long":"14.760833","lat":"44.756944","abbr":"RAB"},{"name":"Pomak","county":"Split.-dalm.Dalmacija","zipcode":"21000","city":"Split","address":"Stinice 22","email":"tenis@tkpomak.hr","phone":"(098)764 554","mobile":"(091)513 8439","long":"16.455833","lat":"43.513889","abbr":"POM"},{"name":"Split","county":"Split.-dalm.","zipcode":"21000","city":"Split","address":"Put Firula 18","email":"tenis.klub.split@st.t-com.hr","phone":"(021)389 576","mobile":"(091)438 9576","website":"www.tk-split.hr","long":"16.455833","lat":"43.513889","abbr":"ST"},{"name":"Stobrec","county":"Split.-dalm.Dalmacija","zipcode":"21311","city":"Stobrec","address":"Put svetog Lovre 45b","email":"tc-stobrec@st.t-com.hr","phone":"(021)325 064","long":"16.522222","lat":"43.5025","abbr":"STO"},{"name":"Zadar 08","county":"ZadarskaDalmacija","zipcode":"23000","city":"Zadar","address":"Frana Supila 16","email":"lovro_r@yahoo.com","phone":"(098)172 0228","mobile":"(098)172 0228","long":"15.242222","lat":"44.119722","abbr":"ZAD"},{"name":"HTK Zagreb","county":"Gr. ZagrebZagreb","zipcode":"10000","city":"Zagreb","address":"Metalceva bb","email":"htk.zagreb@zg.t-com.hr","phone":"ceva bb(01)301 1045","mobile":"(098)275 319","long":"16","lat":"45.8","abbr":"HTK"},{"name":"Dalmacija","county":"ZadarskaDalmacija","zipcode":"23206","city":"Sukosan","address":"Sukosan XXX 40","email":"marina_nincevic@hotmail.com","long":"15.315556","lat":"44.046667","abbr":"DLM"},{"name":"Libertas","county":"Dubr.-neret.Dalmacija","zipcode":"20000","city":"Dubrovnik","address":"Liechtensteinov put 10","email":"0)331 019tk.libertas@yahoo.com","phone":"(020)331 019","mobile":"(098)324 619","long":"18.091389","lat":"42.650556","abbr":"LBR"}],"surface":"hardcourt"},{"name":"A. Walker Allen","context":274,"ranking":30,"round":"R16","rung":3,"category":"12","draw":32,"rank":"1333.3333333333333","lat":"45.8","long":"16","date":"2015-11-13T23:00:00.000Z","yr":2015,"tourn":"Dv. Babolat Zagi kup","clubs":[{"name":"Brela","county":"Split.-dalmDalmacija","zipcode":"21322","city":"Brela","address":"Trg zrtava domovinskog rata 1","email":"jasmin.likic1@st.t-com.hr","phone":"(021)612 502","mobile":"(091)894 8867","long":"16.934167","lat":"43.368889","abbr":"BRL"},{"name":"Olimpija Osijek 1984","county":"Osjecko.-baSlavonija","zipcode":"31000","city":"Osijek","address":"Ulica Olimpije 2","email":"wagnerdomagoj@gmail.com","phone":"(095)701 0001","mobile":"(095)701 0001","long":"16.55","lat":"46.133333","abbr":"OLI"},{"name":"Losinj-Jadranka","county":"Prim.-gor.Istra i Primorje","zipcode":"51550","city":"Mali Losinj","address":"Suncana uvala bb","email":"jadranko.visak@ri.t-com.hr","phone":"cana uvala bb(051)232 014","mobile":"(098)259 248","long":"14.468611","lat":"44.530556","abbr":"LJD"},{"name":"Mladost-Akademicar","county":"Gr. ZagrebZagreb","zipcode":"10000","city":"Zagreb","address":"Jarunska 5","email":"tajnistvo@hatk-mladost-akademicar.hr","phone":"(099)235 5255","mobile":"(099)235 5255","long":"16","lat":"45.8","abbr":"MAK"},{"name":"Vulpes","county":"Gr. ZagrebZagreb","zipcode":"10000","city":"Zagreb","address":"Nova cesta 44","email":"darija.deskovic@zg.t-com.hr","phone":"(01)382 1309","mobile":"(098)354 777","long":"16","lat":"45.8","abbr":"VUL"},{"name":"Precko","county":"Gr. Zagreb","zipcode":"10000","city":"Zagreb","address":"Dekanici bb","email":"tenis.klub.precko@zg.t-com.hr","phone":"ci bb(01)388 5495","mobile":"(091)501 5457","long":"16","lat":"45.8","abbr":"PRE"},{"name":"Samobor 1890","county":"Zup.zagreb.Sredisnja","zipcode":"10430","city":"Samobor","address":"Josipa Jelacica 30","email":"tk.samobor@optinet.hr","phone":"cica 30(01)336 3501","mobile":"(098)218 755","long":"15.718056","lat":"45.803056","abbr":"SAM"},{"name":"Iteam","county":"Gr. ZagrebZagreb","zipcode":"10000","city":"Zagreb","address":"Vrbaniceva 31","email":"teniskiklub.iteam@gmail.com","phone":"ceva 31(091)569 7447","mobile":"(098) 824 003","long":"16","lat":"45.8","abbr":"ITE"},{"name":"Dakovo","county":"Osjecko.-baSlavonija","zipcode":"31400","city":"Dakovo","address":"Ljudevita Gaja bb","email":"dario","phone":"(031)812 342","mobile":".jagodic@gmail.com(098)123 2088","long":"18.410556","lat":"45.308333","abbr":"DJA"},{"name":"Stobrec","county":"Split.-dalm.Dalmacija","zipcode":"21311","city":"Stobrec","address":"Put svetog Lovre 45b","email":"tc-stobrec@st.t-com.hr","phone":"(021)325 064","long":"16.522222","lat":"43.5025","abbr":"STO"},{"name":"Zagi","county":"Gr. ZagrebZagreb","zipcode":"10000","city":"Zagreb","address":"Havidiceva 38","email":"zagi_sport@inet.hr","phone":"ceva 38(01)665 8448","mobile":"(091)660 0811","website":"www.zagi-sport.hr","long":"16","lat":"45.8","abbr":"ZGI"},{"name":"Varteks","county":"VarazdinskaSjeverozapadna","zipcode":"42000","city":"Varazdin","address":"Zagrebacka 91b","email":"tk.varteks@vz.t-com.hr","phone":"cka 91b(042)241 766","mobile":"(098)284 754","long":"16.337778","lat":"46.304444","abbr":"VAR"},{"name":"Neptun 2008","county":"Osjecko.-baSlavonija","zipcode":"31000","city":"Osijek","address":"Naselje Vladimira Nazora 14","email":"sapejic@gmail.com","phone":"(031) 207 553","long":"16.55","lat":"46.133333","abbr":"NEP"},{"name":"Vinkovci","county":"Vuk.-srijem.Slavonija","zipcode":"32100","city":"Vinkovci","address":"SRC Lenije bb","email":"tk.vinkovci@vk.t-com.hr","phone":"(032)306 192","mobile":"(098)167 0364","website":"www.tk-vinkovci.hr","long":"18.804722","lat":"45.288333","abbr":"VK"},{"name":"San Spin","county":"Gr. ZagrebZagreb","zipcode":"10040","city":"Zagreb","address":"Mirosevecina 2","email":"san-spin@zg.htnet.hr","phone":"cina 2(01)298 5363","mobile":"(091)171 4239","website":"www.san-spin.hr","long":"16","lat":"45.8","abbr":"SSP"},{"name":"Top Spin","county":"Gr. ZagrebZagreb","zipcode":"10000","city":"Zagreb","address":"Vlaska 83/1","email":"office@topspin.hr   ","phone":"(01)369 3690","mobile":"(098)980 6031 ","website":"www.tktopspin.hr.","long":"16","lat":"45.8","abbr":"TSP"}],"surface":"hardcourt"},{"name":"A. Walker Allen","context":278,"ranking":30,"round":"SF","rung":5,"category":"12","draw":32,"rank":"1111.111111111111","lat":"44.119722","long":"15.242222","date":"2015-11-06T23:00:00.000Z","yr":2015,"tourn":"DV. OP TK DALMACIJA","clubs":[{"name":"Brela","county":"Split.-dalmDalmacija","zipcode":"21322","city":"Brela","address":"Trg zrtava domovinskog rata 1","email":"jasmin.likic1@st.t-com.hr","phone":"(021)612 502","mobile":"(091)894 8867","long":"16.934167","lat":"43.368889","abbr":"BRL"},{"name":"Ogulin","county":"KarlovackaSredisnja","zipcode":"47300","city":"Ogulin","address":"Bolnicka bb","email":"zsug.ogulina@ka.t-com.hr","phone":"cka bb(047)531 970","mobile":"(091)152 2584","long":"15.228611","lat":"45.266111","abbr":"OG"},{"name":"Split","county":"Split.-dalm.","zipcode":"21000","city":"Split","address":"Put Firula 18","email":"tenis.klub.split@st.t-com.hr","phone":"(021)389 576","mobile":"(091)438 9576","website":"www.tk-split.hr","long":"16.455833","lat":"43.513889","abbr":"ST"},{"name":"Stobrec","county":"Split.-dalm.Dalmacija","zipcode":"21311","city":"Stobrec","address":"Put svetog Lovre 45b","email":"tc-stobrec@st.t-com.hr","phone":"(021)325 064","long":"16.522222","lat":"43.5025","abbr":"STO"},{"name":"Ivan Merz","county":"Gr. ZagrebZagreb","zipcode":"10000","city":"Zagreb","address":"Ante Mike Tripala 1","email":"236alan.kolakovic@yahoo.com","phone":"(01)662 3236","mobile":"(091)111 5155","website":"www.samosport.hr","long":"16","lat":"45.8","abbr":"IMZ"},{"name":"Dalmacija","county":"ZadarskaDalmacija","zipcode":"23206","city":"Sukosan","address":"Sukosan XXX 40","email":"marina_nincevic@hotmail.com","long":"15.315556","lat":"44.046667","abbr":"DLM"},{"name":"Zadar 08","county":"ZadarskaDalmacija","zipcode":"23000","city":"Zadar","address":"Frana Supila 16","email":"lovro_r@yahoo.com","phone":"(098)172 0228","mobile":"(098)172 0228","long":"15.242222","lat":"44.119722","abbr":"ZAD"},{"name":"Poen","county":"Split.-dalm.Dalmacija","zipcode":"21300","city":"Makarska","address":"Breljanska 4","email":"tkpoen@gmail.com","phone":"(091)334 1410","mobile":"(098)923 0738","long":"17.017778","lat":"43.296944","abbr":"POE"}],"surface":"hardcourt"},{"name":"A. Walker Allen","context":138,"ranking":90,"round":"QF","rung":4,"category":"14","draw":16,"rank":"1111.111111111111","lat":"42.650556","long":"18.091389","date":"2015-10-29T23:00:00.000Z","yr":2015,"tourn":"Memorijal Dure Bokuna","clubs":[{"name":"Split","county":"Split.-dalm.","zipcode":"21000","city":"Split","address":"Put Firula 18","email":"tenis.klub.split@st.t-com.hr","phone":"(021)389 576","mobile":"(091)438 9576","website":"www.tk-split.hr","long":"16.455833","lat":"43.513889","abbr":"ST"},{"name":"Brela","county":"Split.-dalmDalmacija","zipcode":"21322","city":"Brela","address":"Trg zrtava domovinskog rata 1","email":"jasmin.likic1@st.t-com.hr","phone":"(021)612 502","mobile":"(091)894 8867","long":"16.934167","lat":"43.368889","abbr":"BRL"},{"name":"Ragusa","county":"Dubr.-neret.Dalmacija","zipcode":"20000","city":"Dubrovnik","address":"Liechtensteinov put 10","email":"info@dubrovniktenis.com","phone":"(099)331 0199","mobile":"(091)486 3450","long":"18.091389","lat":"42.650556","abbr":"RGS"},{"name":"Stobrec","county":"Split.-dalm.Dalmacija","zipcode":"21311","city":"Stobrec","address":"Put svetog Lovre 45b","email":"tc-stobrec@st.t-com.hr","phone":"(021)325 064","long":"16.522222","lat":"43.5025","abbr":"STO"},{"name":"Dubrovnik","county":"Dubr.-neret.Dalmacija","zipcode":"20000","city":"Dubrovnik","address":"Setaliste kralja Zvonimira bb","email":"tenisklubdubrovnik@gmail.com","phone":"(020)437","mobile":"(098)980 1633","long":"18.091389","lat":"42.650556","abbr":"DU"},{"name":"Libertas","county":"Dubr.-neret.Dalmacija","zipcode":"20000","city":"Dubrovnik","address":"Liechtensteinov put 10","email":"0)331 019tk.libertas@yahoo.com","phone":"(020)331 019","mobile":"(098)324 619","long":"18.091389","lat":"42.650556","abbr":"LBR"}],"surface":"clay"},{"name":"A. Walker Allen","context":286,"ranking":29,"round":"R16","rung":3,"category":"12","draw":32,"rank":"666.6666666666666","lat":"43.296944","long":"17.017778","date":"2015-10-22T22:00:00.000Z","yr":2015,"tourn":"OP POENA","clubs":[{"name":"Brela","county":"Split.-dalmDalmacija","zipcode":"21322","city":"Brela","address":"Trg zrtava domovinskog rata 1","email":"jasmin.likic1@st.t-com.hr","phone":"(021)612 502","mobile":"(091)894 8867","long":"16.934167","lat":"43.368889","abbr":"BRL"},{"name":"Stobrec","county":"Split.-dalm.Dalmacija","zipcode":"21311","city":"Stobrec","address":"Put svetog Lovre 45b","email":"tc-stobrec@st.t-com.hr","phone":"(021)325 064","long":"16.522222","lat":"43.5025","abbr":"STO"},{"name":"Split","county":"Split.-dalm.","zipcode":"21000","city":"Split","address":"Put Firula 18","email":"tenis.klub.split@st.t-com.hr","phone":"(021)389 576","mobile":"(091)438 9576","website":"www.tk-split.hr","long":"16.455833","lat":"43.513889","abbr":"ST"},{"name":"Ragusa","county":"Dubr.-neret.Dalmacija","zipcode":"20000","city":"Dubrovnik","address":"Liechtensteinov put 10","email":"info@dubrovniktenis.com","phone":"(099)331 0199","mobile":"(091)486 3450","long":"18.091389","lat":"42.650556","abbr":"RGS"},{"name":"Poen","county":"Split.-dalm.Dalmacija","zipcode":"21300","city":"Makarska","address":"Breljanska 4","email":"tkpoen@gmail.com","phone":"(091)334 1410","mobile":"(098)923 0738","long":"17.017778","lat":"43.296944","abbr":"POE"},{"name":"Dubrovnik","county":"Dubr.-neret.Dalmacija","zipcode":"20000","city":"Dubrovnik","address":"Setaliste kralja Zvonimira bb","email":"tenisklubdubrovnik@gmail.com","phone":"(020)437","mobile":"(098)980 1633","long":"18.091389","lat":"42.650556","abbr":"DU"},{"name":"Makarska","county":"Split.-dalm.Dalmacija","zipcode":"21300","city":"Makarska","address":"Franjevacki put bb","email":"tkmakarska@gmail.com","phone":"cki put bb(021)625 002","mobile":"(098)422 662","long":"17.017778","lat":"43.296944","abbr":"MA"},{"name":"Resnik","county":"Split.-dalmDalmacija","zipcode":"21217","city":"Kastel Stafilic","address":"Njiva sv. Petra 6","email":"info@tenis-klub-resnik.hr","phone":"(091)250 5008","mobile":"(091)520 3425","long":"16.333333","lat":"43.55","abbr":"RES"},{"name":"Dalmacijacement","county":"Split.-dalm.Dalmacija","zipcode":"21210","city":"Solin","address":"Marka Marulica 24","email":"tenis.dc@email.t-com.hr","phone":"ca 24(021)212 442","mobile":"(098)370 982","website":"www.tenis-dalmacijacement.com","long":"16.5","lat":"43.55","abbr":"DCE"}],"surface":"clay"},{"name":"A. Walker Allen","context":298,"ranking":34,"round":"QF","rung":4,"category":"12","draw":32,"rank":"666.6666666666666","lat":"45.8","long":"16","date":"2015-09-24T22:00:00.000Z","yr":2015,"tourn":"SALATA OPEN","clubs":[{"name":"Samobor 1890","county":"Zup.zagreb.Sredisnja","zipcode":"10430","city":"Samobor","address":"Josipa Jelacica 30","email":"tk.samobor@optinet.hr","phone":"cica 30(01)336 3501","mobile":"(098)218 755","long":"15.718056","lat":"45.803056","abbr":"SAM"},{"name":"Precko","county":"Gr. Zagreb","zipcode":"10000","city":"Zagreb","address":"Dekanici bb","email":"tenis.klub.precko@zg.t-com.hr","phone":"ci bb(01)388 5495","mobile":"(091)501 5457","long":"16","lat":"45.8","abbr":"PRE"},{"name":"Ivan Merz","county":"Gr. ZagrebZagreb","zipcode":"10000","city":"Zagreb","address":"Ante Mike Tripala 1","email":"236alan.kolakovic@yahoo.com","phone":"(01)662 3236","mobile":"(091)111 5155","website":"www.samosport.hr","long":"16","lat":"45.8","abbr":"IMZ"},{"name":"Zagi","county":"Gr. ZagrebZagreb","zipcode":"10000","city":"Zagreb","address":"Havidiceva 38","email":"zagi_sport@inet.hr","phone":"ceva 38(01)665 8448","mobile":"(091)660 0811","website":"www.zagi-sport.hr","long":"16","lat":"45.8","abbr":"ZGI"},{"name":"Iteam","county":"Gr. ZagrebZagreb","zipcode":"10000","city":"Zagreb","address":"Vrbaniceva 31","email":"teniskiklub.iteam@gmail.com","phone":"ceva 31(091)569 7447","mobile":"(098) 824 003","long":"16","lat":"45.8","abbr":"ITE"},{"name":"Top Spin","county":"Gr. ZagrebZagreb","zipcode":"10000","city":"Zagreb","address":"Vlaska 83/1","email":"office@topspin.hr   ","phone":"(01)369 3690","mobile":"(098)980 6031 ","website":"www.tktopspin.hr.","long":"16","lat":"45.8","abbr":"TSP"},{"name":"Vulpes","county":"Gr. ZagrebZagreb","zipcode":"10000","city":"Zagreb","address":"Nova cesta 44","email":"darija.deskovic@zg.t-com.hr","phone":"(01)382 1309","mobile":"(098)354 777","long":"16","lat":"45.8","abbr":"VUL"},{"name":"Stobrec","county":"Split.-dalm.Dalmacija","zipcode":"21311","city":"Stobrec","address":"Put svetog Lovre 45b","email":"tc-stobrec@st.t-com.hr","phone":"(021)325 064","long":"16.522222","lat":"43.5025","abbr":"STO"},{"name":"Karlovac","county":"KarlovackaSredisnja","zipcode":"47000","city":"Karlovac","address":"Vrbanicev perivoj bb","email":"tkkarlovac@gmail.com","phone":"cev perivoj bb(047)615 242","mobile":"(091)880 8715","long":"18.1","lat":"45.7","abbr":"KA"},{"name":"San Spin","county":"Gr. ZagrebZagreb","zipcode":"10040","city":"Zagreb","address":"Mirosevecina 2","email":"san-spin@zg.htnet.hr","phone":"cina 2(01)298 5363","mobile":"(091)171 4239","website":"www.san-spin.hr","long":"16","lat":"45.8","abbr":"SSP"},{"name":"Vinkovci","county":"Vuk.-srijem.Slavonija","zipcode":"32100","city":"Vinkovci","address":"SRC Lenije bb","email":"tk.vinkovci@vk.t-com.hr","phone":"(032)306 192","mobile":"(098)167 0364","website":"www.tk-vinkovci.hr","long":"18.804722","lat":"45.288333","abbr":"VK"},{"name":"Terra","county":"Gr. ZagrebZagreb","zipcode":"10000","city":"Zagreb","address":"Veslacka 23","email":"miljenko.marjanovic@zg.t-com.hr","phone":"cka 23(01)363 4854","mobile":"(091)886 6901","website":"www.tkterra.com","long":"16","lat":"45.8","abbr":"TER"},{"name":"Neptun 2008","county":"Osjecko.-baSlavonija","zipcode":"31000","city":"Osijek","address":"Naselje Vladimira Nazora 14","email":"sapejic@gmail.com","phone":"(031) 207 553","long":"16.55","lat":"46.133333","abbr":"NEP"},{"name":"Medvescak","county":"Gr. ZagrebZagreb","zipcode":"10000","city":"Zagreb","address":"Schlosserove stube 2","email":"8003tk-medvescak@tk-medvescak.hr","phone":"(01)455 0657","mobile":"(091)568 4958","website":"www.tk-medvescak.hr","long":"16","lat":"45.8","abbr":"MDV"},{"name":"Ponikve","county":"Gr. ZagrebZagreb","zipcode":"10090","city":"Zagreb","address":"Kozjacka 50","email":"tkponikve@tkponikve.hr","phone":"cka 50(01)346 4836","mobile":"(091)346 4836","website":"www.tkponikve.hr","long":"16","lat":"45.8","abbr":"PON"},{"name":"Hrvoje","county":"Gr. ZagrebZagreb","zipcode":"10360","city":"Zagreb","address":"Brestovecka 150","email":"hrvojetenissesvete@gmail.com","phone":"cka 150(01)200 9661","mobile":"(098)232 239","long":"16","lat":"45.8","abbr":"HRJ"},{"name":"Vrbovec","county":"Zup.zagreb.Sredisnja","zipcode":"20340","city":"Vrbovec","address":"Sajmisna bb - p.p. 38","email":"9 1293ivor.koretic@gmail.com","phone":"(01)279 1293","mobile":"(095)913 3698","long":"15.766667","lat":"45.816667","abbr":"VRB"},{"name":"Chromos-Savica","county":"Gr. ZagrebZagreb","zipcode":"10000","city":"Zagreb","address":"Prisavlje bb","email":"dsrt@zg.t-com.hr","phone":"(01)604 3006","mobile":"(091)220 5660","long":"16","lat":"45.8","abbr":"CHS"},{"name":"Purger","county":"Gr. ZagrebZagreb","zipcode":"10020","city":"Zagreb","address":"Remetinecka cesta 64a","email":"ikpurger@gmail.com","phone":"cka cesta 64a(01)652 8847","mobile":"(098)257 894","long":"16","lat":"45.8","abbr":"PUR"},{"name":"Krizevci","county":"Kopr.-krizev.Sjeverozapadna","zipcode":"48260","city":"Krizevci","address":"Ulica Kralja Tomislava 166","email":"ggregurek@net.hr","phone":"(091)172 090","mobile":"(091)302 1989","long":"18.685556","lat":"45.332778","abbr":"KRI"}],"surface":"clay"},{"name":"A. Walker Allen","context":304,"ranking":34,"round":"W","rung":7,"category":"12","draw":32,"rank":"666.6666666666666","lat":"43.5025","long":"16.522222","date":"2015-09-17T22:00:00.000Z","yr":2015,"tourn":"OP Stobreca","clubs":[{"name":"Stobrec","county":"Split.-dalm.Dalmacija","zipcode":"21311","city":"Stobrec","address":"Put svetog Lovre 45b","email":"tc-stobrec@st.t-com.hr","phone":"(021)325 064","long":"16.522222","lat":"43.5025","abbr":"STO"},{"name":"Split","county":"Split.-dalm.","zipcode":"21000","city":"Split","address":"Put Firula 18","email":"tenis.klub.split@st.t-com.hr","phone":"(021)389 576","mobile":"(091)438 9576","website":"www.tk-split.hr","long":"16.455833","lat":"43.513889","abbr":"ST"},{"name":"Dalmacijacement","county":"Split.-dalm.Dalmacija","zipcode":"21210","city":"Solin","address":"Marka Marulica 24","email":"tenis.dc@email.t-com.hr","phone":"ca 24(021)212 442","mobile":"(098)370 982","website":"www.tenis-dalmacijacement.com","long":"16.5","lat":"43.55","abbr":"DCE"},{"name":"Poen","county":"Split.-dalm.Dalmacija","zipcode":"21300","city":"Makarska","address":"Breljanska 4","email":"tkpoen@gmail.com","phone":"(091)334 1410","mobile":"(098)923 0738","long":"17.017778","lat":"43.296944","abbr":"POE"},{"name":"Ragusa","county":"Dubr.-neret.Dalmacija","zipcode":"20000","city":"Dubrovnik","address":"Liechtensteinov put 10","email":"info@dubrovniktenis.com","phone":"(099)331 0199","mobile":"(091)486 3450","long":"18.091389","lat":"42.650556","abbr":"RGS"},{"name":"Ogulin","county":"KarlovackaSredisnja","zipcode":"47300","city":"Ogulin","address":"Bolnicka bb","email":"zsug.ogulina@ka.t-com.hr","phone":"cka bb(047)531 970","mobile":"(091)152 2584","long":"15.228611","lat":"45.266111","abbr":"OG"}],"surface":"clay"},{"name":"A. Walker Allen","context":310,"ranking":34,"round":"R16","rung":3,"category":"12","draw":32,"rank":"1555.5555555555557","lat":"43.513889","long":"16.455833","date":"2015-09-10T22:00:00.000Z","yr":2015,"tourn":"Gradsko OP Splita","clubs":[{"name":"Split","county":"Split.-dalm.","zipcode":"21000","city":"Split","address":"Put Firula 18","email":"tenis.klub.split@st.t-com.hr","phone":"(021)389 576","mobile":"(091)438 9576","website":"www.tk-split.hr","long":"16.455833","lat":"43.513889","abbr":"ST"},{"name":"Pomak","county":"Split.-dalm.Dalmacija","zipcode":"21000","city":"Split","address":"Stinice 22","email":"tenis@tkpomak.hr","phone":"(098)764 554","mobile":"(091)513 8439","long":"16.455833","lat":"43.513889","abbr":"POM"},{"name":"Brela","county":"Split.-dalmDalmacija","zipcode":"21322","city":"Brela","address":"Trg zrtava domovinskog rata 1","email":"jasmin.likic1@st.t-com.hr","phone":"(021)612 502","mobile":"(091)894 8867","long":"16.934167","lat":"43.368889","abbr":"BRL"},{"name":"Chromos","county":"Gr. ZagrebZagreb","zipcode":"10000","city":"Zagreb","address":"Prisavlje 22","email":"teniski.klub.chromos@zg.t-com.hr","phone":"(01)604 3003","mobile":"(098)278 957","long":"16","lat":"45.8","abbr":"CHR"},{"name":"Zadar 08","county":"ZadarskaDalmacija","zipcode":"23000","city":"Zadar","address":"Frana Supila 16","email":"lovro_r@yahoo.com","phone":"(098)172 0228","mobile":"(098)172 0228","long":"15.242222","lat":"44.119722","abbr":"ZAD"},{"name":"Precko","county":"Gr. Zagreb","zipcode":"10000","city":"Zagreb","address":"Dekanici bb","email":"tenis.klub.precko@zg.t-com.hr","phone":"ci bb(01)388 5495","mobile":"(091)501 5457","long":"16","lat":"45.8","abbr":"PRE"},{"name":"Dalmacijacement","county":"Split.-dalm.Dalmacija","zipcode":"21210","city":"Solin","address":"Marka Marulica 24","email":"tenis.dc@email.t-com.hr","phone":"ca 24(021)212 442","mobile":"(098)370 982","website":"www.tenis-dalmacijacement.com","long":"16.5","lat":"43.55","abbr":"DCE"},{"name":"Stobrec","county":"Split.-dalm.Dalmacija","zipcode":"21311","city":"Stobrec","address":"Put svetog Lovre 45b","email":"tc-stobrec@st.t-com.hr","phone":"(021)325 064","long":"16.522222","lat":"43.5025","abbr":"STO"},{"name":"Ragusa","county":"Dubr.-neret.Dalmacija","zipcode":"20000","city":"Dubrovnik","address":"Liechtensteinov put 10","email":"info@dubrovniktenis.com","phone":"(099)331 0199","mobile":"(091)486 3450","long":"18.091389","lat":"42.650556","abbr":"RGS"},{"name":"Poen","county":"Split.-dalm.Dalmacija","zipcode":"21300","city":"Makarska","address":"Breljanska 4","email":"tkpoen@gmail.com","phone":"(091)334 1410","mobile":"(098)923 0738","long":"17.017778","lat":"43.296944","abbr":"POE"}],"surface":"clay"},{"name":"A. Walker Allen","context":317,"ranking":33,"round":"R16","rung":3,"category":"12","draw":32,"rank":"1555.5555555555557","lat":"43.296944","long":"17.017778","date":"2015-08-13T22:00:00.000Z","yr":2015,"tourn":"Memorijal Ivana Panzica","clubs":[{"name":"Split","county":"Split.-dalm.","zipcode":"21000","city":"Split","address":"Put Firula 18","email":"tenis.klub.split@st.t-com.hr","phone":"(021)389 576","mobile":"(091)438 9576","website":"www.tk-split.hr","long":"16.455833","lat":"43.513889","abbr":"ST"},{"name":"Brela","county":"Split.-dalmDalmacija","zipcode":"21322","city":"Brela","address":"Trg zrtava domovinskog rata 1","email":"jasmin.likic1@st.t-com.hr","phone":"(021)612 502","mobile":"(091)894 8867","long":"16.934167","lat":"43.368889","abbr":"BRL"},{"name":"Kastav","county":"Prim.-gor.Istra i Primorje","zipcode":"51215","city":"Kastav","address":"Rudno bb","email":"juracic1@gmail.com","phone":"(051)256 068","mobile":"(098)546 561","long":"14.348611","lat":"45.375278","abbr":"KST"},{"name":"Precko","county":"Gr. Zagreb","zipcode":"10000","city":"Zagreb","address":"Dekanici bb","email":"tenis.klub.precko@zg.t-com.hr","phone":"ci bb(01)388 5495","mobile":"(091)501 5457","long":"16","lat":"45.8","abbr":"PRE"},{"name":"Chromos","county":"Gr. ZagrebZagreb","zipcode":"10000","city":"Zagreb","address":"Prisavlje 22","email":"teniski.klub.chromos@zg.t-com.hr","phone":"(01)604 3003","mobile":"(098)278 957","long":"16","lat":"45.8","abbr":"CHR"},{"name":"Samobor 1890","county":"Zup.zagreb.Sredisnja","zipcode":"10430","city":"Samobor","address":"Josipa Jelacica 30","email":"tk.samobor@optinet.hr","phone":"cica 30(01)336 3501","mobile":"(098)218 755","long":"15.718056","lat":"45.803056","abbr":"SAM"},{"name":"Varazdin 1181","county":"VarazdinskaSjeverozapadna","zipcode":"42000","city":"Varazdin","address":"Miroslava Krleze 1a","email":"14 940lovro_juzbasic@net.hr","phone":"(095)905 1084","mobile":"(095)905 1084","website":"www.tk-varazdin1181.hr  ","long":"16.337778","lat":"46.304444","abbr":"VZD"},{"name":"Resnik","county":"Split.-dalmDalmacija","zipcode":"21217","city":"Kastel Stafilic","address":"Njiva sv. Petra 6","email":"info@tenis-klub-resnik.hr","phone":"(091)250 5008","mobile":"(091)520 3425","long":"16.333333","lat":"43.55","abbr":"RES"},{"name":"Stobrec","county":"Split.-dalm.Dalmacija","zipcode":"21311","city":"Stobrec","address":"Put svetog Lovre 45b","email":"tc-stobrec@st.t-com.hr","phone":"(021)325 064","long":"16.522222","lat":"43.5025","abbr":"STO"},{"name":"San Spin","county":"Gr. ZagrebZagreb","zipcode":"10040","city":"Zagreb","address":"Mirosevecina 2","email":"san-spin@zg.htnet.hr","phone":"cina 2(01)298 5363","mobile":"(091)171 4239","website":"www.san-spin.hr","long":"16","lat":"45.8","abbr":"SSP"},{"name":"Medvescak","county":"Gr. ZagrebZagreb","zipcode":"10000","city":"Zagreb","address":"Schlosserove stube 2","email":"8003tk-medvescak@tk-medvescak.hr","phone":"(01)455 0657","mobile":"(091)568 4958","website":"www.tk-medvescak.hr","long":"16","lat":"45.8","abbr":"MDV"},{"name":"Poen","county":"Split.-dalm.Dalmacija","zipcode":"21300","city":"Makarska","address":"Breljanska 4","email":"tkpoen@gmail.com","phone":"(091)334 1410","mobile":"(098)923 0738","long":"17.017778","lat":"43.296944","abbr":"POE"},{"name":"Dalmacijacement","county":"Split.-dalm.Dalmacija","zipcode":"21210","city":"Solin","address":"Marka Marulica 24","email":"tenis.dc@email.t-com.hr","phone":"ca 24(021)212 442","mobile":"(098)370 982","website":"www.tenis-dalmacijacement.com","long":"16.5","lat":"43.55","abbr":"DCE"},{"name":"Makarska","county":"Split.-dalm.Dalmacija","zipcode":"21300","city":"Makarska","address":"Franjevacki put bb","email":"tkmakarska@gmail.com","phone":"cki put bb(021)625 002","mobile":"(098)422 662","long":"17.017778","lat":"43.296944","abbr":"MA"}],"surface":"clay"},{"name":"A. Walker Allen","context":323,"ranking":33,"round":"SF","rung":5,"category":"12","draw":32,"rank":"888.8888888888888","lat":"44.119722","long":"15.242222","date":"2015-07-09T22:00:00.000Z","yr":2015,"tourn":"Limona kup","clubs":[{"name":"Medvescak","county":"Gr. ZagrebZagreb","zipcode":"10000","city":"Zagreb","address":"Schlosserove stube 2","email":"8003tk-medvescak@tk-medvescak.hr","phone":"(01)455 0657","mobile":"(091)568 4958","website":"www.tk-medvescak.hr","long":"16","lat":"45.8","abbr":"MDV"},{"name":"Zadar 08","county":"ZadarskaDalmacija","zipcode":"23000","city":"Zadar","address":"Frana Supila 16","email":"lovro_r@yahoo.com","phone":"(098)172 0228","mobile":"(098)172 0228","long":"15.242222","lat":"44.119722","abbr":"ZAD"},{"name":"Stobrec","county":"Split.-dalm.Dalmacija","zipcode":"21311","city":"Stobrec","address":"Put svetog Lovre 45b","email":"tc-stobrec@st.t-com.hr","phone":"(021)325 064","long":"16.522222","lat":"43.5025","abbr":"STO"},{"name":"Split","county":"Split.-dalm.","zipcode":"21000","city":"Split","address":"Put Firula 18","email":"tenis.klub.split@st.t-com.hr","phone":"(021)389 576","mobile":"(091)438 9576","website":"www.tk-split.hr","long":"16.455833","lat":"43.513889","abbr":"ST"},{"name":"Resnik","county":"Split.-dalmDalmacija","zipcode":"21217","city":"Kastel Stafilic","address":"Njiva sv. Petra 6","email":"info@tenis-klub-resnik.hr","phone":"(091)250 5008","mobile":"(091)520 3425","long":"16.333333","lat":"43.55","abbr":"RES"},{"name":"Vulpes","county":"Gr. ZagrebZagreb","zipcode":"10000","city":"Zagreb","address":"Nova cesta 44","email":"darija.deskovic@zg.t-com.hr","phone":"(01)382 1309","mobile":"(098)354 777","long":"16","lat":"45.8","abbr":"VUL"},{"name":"Ogulin","county":"KarlovackaSredisnja","zipcode":"47300","city":"Ogulin","address":"Bolnicka bb","email":"zsug.ogulina@ka.t-com.hr","phone":"cka bb(047)531 970","mobile":"(091)152 2584","long":"15.228611","lat":"45.266111","abbr":"OG"},{"name":"Dalmacija","county":"ZadarskaDalmacija","zipcode":"23206","city":"Sukosan","address":"Sukosan XXX 40","email":"marina_nincevic@hotmail.com","long":"15.315556","lat":"44.046667","abbr":"DLM"},{"name":"Zagi","county":"Gr. ZagrebZagreb","zipcode":"10000","city":"Zagreb","address":"Havidiceva 38","email":"zagi_sport@inet.hr","phone":"ceva 38(01)665 8448","mobile":"(091)660 0811","website":"www.zagi-sport.hr","long":"16","lat":"45.8","abbr":"ZGI"},{"name":"Terra","county":"Gr. ZagrebZagreb","zipcode":"10000","city":"Zagreb","address":"Veslacka 23","email":"miljenko.marjanovic@zg.t-com.hr","phone":"cka 23(01)363 4854","mobile":"(091)886 6901","website":"www.tkterra.com","long":"16","lat":"45.8","abbr":"TER"}],"surface":"clay"},{"name":"A. Walker Allen","context":343,"ranking":37,"round":"F","rung":6,"category":"12","draw":32,"rank":"1111.111111111111","lat":"43.513889","long":"16.455833","date":"2015-05-28T22:00:00.000Z","yr":2015,"tourn":"Gradsko OP Splita","clubs":[{"name":"Split","county":"Split.-dalm.","zipcode":"21000","city":"Split","address":"Put Firula 18","email":"tenis.klub.split@st.t-com.hr","phone":"(021)389 576","mobile":"(091)438 9576","website":"www.tk-split.hr","long":"16.455833","lat":"43.513889","abbr":"ST"},{"name":"Stobrec","county":"Split.-dalm.Dalmacija","zipcode":"21311","city":"Stobrec","address":"Put svetog Lovre 45b","email":"tc-stobrec@st.t-com.hr","phone":"(021)325 064","long":"16.522222","lat":"43.5025","abbr":"STO"},{"name":"Dalmacijacement","county":"Split.-dalm.Dalmacija","zipcode":"21210","city":"Solin","address":"Marka Marulica 24","email":"tenis.dc@email.t-com.hr","phone":"ca 24(021)212 442","mobile":"(098)370 982","website":"www.tenis-dalmacijacement.com","long":"16.5","lat":"43.55","abbr":"DCE"},{"name":"Poen","county":"Split.-dalm.Dalmacija","zipcode":"21300","city":"Makarska","address":"Breljanska 4","email":"tkpoen@gmail.com","phone":"(091)334 1410","mobile":"(098)923 0738","long":"17.017778","lat":"43.296944","abbr":"POE"},{"name":"Zadar 08","county":"ZadarskaDalmacija","zipcode":"23000","city":"Zadar","address":"Frana Supila 16","email":"lovro_r@yahoo.com","phone":"(098)172 0228","mobile":"(098)172 0228","long":"15.242222","lat":"44.119722","abbr":"ZAD"},{"name":"Resnik","county":"Split.-dalmDalmacija","zipcode":"21217","city":"Kastel Stafilic","address":"Njiva sv. Petra 6","email":"info@tenis-klub-resnik.hr","phone":"(091)250 5008","mobile":"(091)520 3425","long":"16.333333","lat":"43.55","abbr":"RES"},{"name":"Ragusa","county":"Dubr.-neret.Dalmacija","zipcode":"20000","city":"Dubrovnik","address":"Liechtensteinov put 10","email":"info@dubrovniktenis.com","phone":"(099)331 0199","mobile":"(091)486 3450","long":"18.091389","lat":"42.650556","abbr":"RGS"},{"name":"Pomak","county":"Split.-dalm.Dalmacija","zipcode":"21000","city":"Split","address":"Stinice 22","email":"tenis@tkpomak.hr","phone":"(098)764 554","mobile":"(091)513 8439","long":"16.455833","lat":"43.513889","abbr":"POM"}],"surface":"clay"},{"name":"A. Walker Allen","context":357,"ranking":76,"round":"W","rung":7,"category":"12","draw":32,"rank":"666.6666666666666","lat":"43.513889","long":"16.455833","date":"2015-04-23T22:00:00.000Z","yr":2015,"tourn":"OP Pomaka","clubs":[{"name":"Stobrec","county":"Split.-dalm.Dalmacija","zipcode":"21311","city":"Stobrec","address":"Put svetog Lovre 45b","email":"tc-stobrec@st.t-com.hr","phone":"(021)325 064","long":"16.522222","lat":"43.5025","abbr":"STO"},{"name":"Zadar 08","county":"ZadarskaDalmacija","zipcode":"23000","city":"Zadar","address":"Frana Supila 16","email":"lovro_r@yahoo.com","phone":"(098)172 0228","mobile":"(098)172 0228","long":"15.242222","lat":"44.119722","abbr":"ZAD"},{"name":"Makarska","county":"Split.-dalm.Dalmacija","zipcode":"21300","city":"Makarska","address":"Franjevacki put bb","email":"tkmakarska@gmail.com","phone":"cki put bb(021)625 002","mobile":"(098)422 662","long":"17.017778","lat":"43.296944","abbr":"MA"},{"name":"Split","county":"Split.-dalm.","zipcode":"21000","city":"Split","address":"Put Firula 18","email":"tenis.klub.split@st.t-com.hr","phone":"(021)389 576","mobile":"(091)438 9576","website":"www.tk-split.hr","long":"16.455833","lat":"43.513889","abbr":"ST"},{"name":"Dalmacijacement","county":"Split.-dalm.Dalmacija","zipcode":"21210","city":"Solin","address":"Marka Marulica 24","email":"tenis.dc@email.t-com.hr","phone":"ca 24(021)212 442","mobile":"(098)370 982","website":"www.tenis-dalmacijacement.com","long":"16.5","lat":"43.55","abbr":"DCE"},{"name":"Ragusa","county":"Dubr.-neret.Dalmacija","zipcode":"20000","city":"Dubrovnik","address":"Liechtensteinov put 10","email":"info@dubrovniktenis.com","phone":"(099)331 0199","mobile":"(091)486 3450","long":"18.091389","lat":"42.650556","abbr":"RGS"},{"name":"Resnik","county":"Split.-dalmDalmacija","zipcode":"21217","city":"Kastel Stafilic","address":"Njiva sv. Petra 6","email":"info@tenis-klub-resnik.hr","phone":"(091)250 5008","mobile":"(091)520 3425","long":"16.333333","lat":"43.55","abbr":"RES"},{"name":"Poen","county":"Split.-dalm.Dalmacija","zipcode":"21300","city":"Makarska","address":"Breljanska 4","email":"tkpoen@gmail.com","phone":"(091)334 1410","mobile":"(098)923 0738","long":"17.017778","lat":"43.296944","abbr":"POE"}],"surface":"clay"},{"name":"A. Walker Allen","context":363,"ranking":76,"round":"SF","rung":5,"category":"12","draw":32,"rank":"1333.3333333333333","lat":"43.5025","long":"16.522222","date":"2015-04-16T22:00:00.000Z","yr":2015,"tourn":"OP Dalmacije","clubs":[{"name":"Pomak","county":"Split.-dalm.Dalmacija","zipcode":"21000","city":"Split","address":"Stinice 22","email":"tenis@tkpomak.hr","phone":"(098)764 554","mobile":"(091)513 8439","long":"16.455833","lat":"43.513889","abbr":"POM"},{"name":"Kvarner","county":"Prim.-gor.Istra i Primorje","zipcode":"51000","city":"Rijeka","address":"Ede Jardasa 27a","email":"tenis-klub-kvarner@ri.htnet.hr","phone":"(051)621 601","mobile":"(095)906 9587","website":"www.tkk.hr","long":"14.409167","lat":"45.343056","abbr":"KVA"},{"name":"Brela","county":"Split.-dalmDalmacija","zipcode":"21322","city":"Brela","address":"Trg zrtava domovinskog rata 1","email":"jasmin.likic1@st.t-com.hr","phone":"(021)612 502","mobile":"(091)894 8867","long":"16.934167","lat":"43.368889","abbr":"BRL"},{"name":"Stobrec","county":"Split.-dalm.Dalmacija","zipcode":"21311","city":"Stobrec","address":"Put svetog Lovre 45b","email":"tc-stobrec@st.t-com.hr","phone":"(021)325 064","long":"16.522222","lat":"43.5025","abbr":"STO"},{"name":"Split","county":"Split.-dalm.","zipcode":"21000","city":"Split","address":"Put Firula 18","email":"tenis.klub.split@st.t-com.hr","phone":"(021)389 576","mobile":"(091)438 9576","website":"www.tk-split.hr","long":"16.455833","lat":"43.513889","abbr":"ST"},{"name":"Ragusa","county":"Dubr.-neret.Dalmacija","zipcode":"20000","city":"Dubrovnik","address":"Liechtensteinov put 10","email":"info@dubrovniktenis.com","phone":"(099)331 0199","mobile":"(091)486 3450","long":"18.091389","lat":"42.650556","abbr":"RGS"},{"name":"Zagi","county":"Gr. ZagrebZagreb","zipcode":"10000","city":"Zagreb","address":"Havidiceva 38","email":"zagi_sport@inet.hr","phone":"ceva 38(01)665 8448","mobile":"(091)660 0811","website":"www.zagi-sport.hr","long":"16","lat":"45.8","abbr":"ZGI"},{"name":"Poen","county":"Split.-dalm.Dalmacija","zipcode":"21300","city":"Makarska","address":"Breljanska 4","email":"tkpoen@gmail.com","phone":"(091)334 1410","mobile":"(098)923 0738","long":"17.017778","lat":"43.296944","abbr":"POE"},{"name":"Dalmacijacement","county":"Split.-dalm.Dalmacija","zipcode":"21210","city":"Solin","address":"Marka Marulica 24","email":"tenis.dc@email.t-com.hr","phone":"ca 24(021)212 442","mobile":"(098)370 982","website":"www.tenis-dalmacijacement.com","long":"16.5","lat":"43.55","abbr":"DCE"}],"surface":"clay"},{"name":"A. Walker Allen","context":373,"ranking":76,"round":"QF","rung":4,"category":"12","draw":32,"rank":"1333.3333333333333","lat":"43.55","long":"16.5","date":"2015-04-02T22:00:00.000Z","yr":2015,"tourn":"OP Solina","clubs":[{"name":"Pomak","county":"Split.-dalm.Dalmacija","zipcode":"21000","city":"Split","address":"Stinice 22","email":"tenis@tkpomak.hr","phone":"(098)764 554","mobile":"(091)513 8439","long":"16.455833","lat":"43.513889","abbr":"POM"},{"name":"Split","county":"Split.-dalm.","zipcode":"21000","city":"Split","address":"Put Firula 18","email":"tenis.klub.split@st.t-com.hr","phone":"(021)389 576","mobile":"(091)438 9576","website":"www.tk-split.hr","long":"16.455833","lat":"43.513889","abbr":"ST"},{"name":"Brela","county":"Split.-dalmDalmacija","zipcode":"21322","city":"Brela","address":"Trg zrtava domovinskog rata 1","email":"jasmin.likic1@st.t-com.hr","phone":"(021)612 502","mobile":"(091)894 8867","long":"16.934167","lat":"43.368889","abbr":"BRL"},{"name":"Stobrec","county":"Split.-dalm.Dalmacija","zipcode":"21311","city":"Stobrec","address":"Put svetog Lovre 45b","email":"tc-stobrec@st.t-com.hr","phone":"(021)325 064","long":"16.522222","lat":"43.5025","abbr":"STO"},{"name":"Zadar 08","county":"ZadarskaDalmacija","zipcode":"23000","city":"Zadar","address":"Frana Supila 16","email":"lovro_r@yahoo.com","phone":"(098)172 0228","mobile":"(098)172 0228","long":"15.242222","lat":"44.119722","abbr":"ZAD"},{"name":"Dalmacijacement","county":"Split.-dalm.Dalmacija","zipcode":"21210","city":"Solin","address":"Marka Marulica 24","email":"tenis.dc@email.t-com.hr","phone":"ca 24(021)212 442","mobile":"(098)370 982","website":"www.tenis-dalmacijacement.com","long":"16.5","lat":"43.55","abbr":"DCE"},{"name":"Zagi","county":"Gr. ZagrebZagreb","zipcode":"10000","city":"Zagreb","address":"Havidiceva 38","email":"zagi_sport@inet.hr","phone":"ceva 38(01)665 8448","mobile":"(091)660 0811","website":"www.zagi-sport.hr","long":"16","lat":"45.8","abbr":"ZGI"},{"name":"Dalmacija","county":"ZadarskaDalmacija","zipcode":"23206","city":"Sukosan","address":"Sukosan XXX 40","email":"marina_nincevic@hotmail.com","long":"15.315556","lat":"44.046667","abbr":"DLM"},{"name":"Resnik","county":"Split.-dalmDalmacija","zipcode":"21217","city":"Kastel Stafilic","address":"Njiva sv. Petra 6","email":"info@tenis-klub-resnik.hr","phone":"(091)250 5008","mobile":"(091)520 3425","long":"16.333333","lat":"43.55","abbr":"RES"}],"surface":"clay"},{"name":"A. Walker Allen","context":375,"ranking":75,"round":"R16","rung":3,"category":"12","draw":32,"rank":"1555.5555555555557","lat":"45.343056","long":"14.409167","date":"2015-03-20T23:00:00.000Z","yr":2015,"tourn":"OP Rijeke","clubs":[{"name":"Pro 2000","county":"IstarskaIstra i Primorje","zipcode":"52450","city":"Porec","address":"Trg trsine 10","email":"juraj.dusparic@hotmail.com","phone":"(052)442 013","mobile":"(091)518 8208","long":"17.928056","lat":"45.367778","abbr":"PRO"},{"name":"Ponikve","county":"Gr. ZagrebZagreb","zipcode":"10090","city":"Zagreb","address":"Kozjacka 50","email":"tkponikve@tkponikve.hr","phone":"cka 50(01)346 4836","mobile":"(091)346 4836","website":"www.tkponikve.hr","long":"16","lat":"45.8","abbr":"PON"},{"name":"Pomak","county":"Split.-dalm.Dalmacija","zipcode":"21000","city":"Split","address":"Stinice 22","email":"tenis@tkpomak.hr","phone":"(098)764 554","mobile":"(091)513 8439","long":"16.455833","lat":"43.513889","abbr":"POM"},{"name":"HTK Zagreb","county":"Gr. ZagrebZagreb","zipcode":"10000","city":"Zagreb","address":"Metalceva bb","email":"htk.zagreb@zg.t-com.hr","phone":"ceva bb(01)301 1045","mobile":"(098)275 319","long":"16","lat":"45.8","abbr":"HTK"},{"name":"Brela","county":"Split.-dalmDalmacija","zipcode":"21322","city":"Brela","address":"Trg zrtava domovinskog rata 1","email":"jasmin.likic1@st.t-com.hr","phone":"(021)612 502","mobile":"(091)894 8867","long":"16.934167","lat":"43.368889","abbr":"BRL"},{"name":"Kvarner","county":"Prim.-gor.Istra i Primorje","zipcode":"51000","city":"Rijeka","address":"Ede Jardasa 27a","email":"tenis-klub-kvarner@ri.htnet.hr","phone":"(051)621 601","mobile":"(095)906 9587","website":"www.tkk.hr","long":"14.409167","lat":"45.343056","abbr":"KVA"},{"name":"Split","county":"Split.-dalm.","zipcode":"21000","city":"Split","address":"Put Firula 18","email":"tenis.klub.split@st.t-com.hr","phone":"(021)389 576","mobile":"(091)438 9576","website":"www.tk-split.hr","long":"16.455833","lat":"43.513889","abbr":"ST"},{"name":"Chromos","county":"Gr. ZagrebZagreb","zipcode":"10000","city":"Zagreb","address":"Prisavlje 22","email":"teniski.klub.chromos@zg.t-com.hr","phone":"(01)604 3003","mobile":"(098)278 957","long":"16","lat":"45.8","abbr":"CHR"},{"name":"Smrikve","county":"IstarskaIstra i Primorje","zipcode":"52100","city":"Pula","address":"Stinjanska cesta 91","email":"1tomislav.bozovic@pu.t-com.hr","phone":"(052)517 011","long":"13.848056","lat":"44.868333","abbr":"SMR"},{"name":"Stobrec","county":"Split.-dalm.Dalmacija","zipcode":"21311","city":"Stobrec","address":"Put svetog Lovre 45b","email":"tc-stobrec@st.t-com.hr","phone":"(021)325 064","long":"16.522222","lat":"43.5025","abbr":"STO"},{"name":"Vulpes","county":"Gr. ZagrebZagreb","zipcode":"10000","city":"Zagreb","address":"Nova cesta 44","email":"darija.deskovic@zg.t-com.hr","phone":"(01)382 1309","mobile":"(098)354 777","long":"16","lat":"45.8","abbr":"VUL"},{"name":"Kastav","county":"Prim.-gor.Istra i Primorje","zipcode":"51215","city":"Kastav","address":"Rudno bb","email":"juracic1@gmail.com","phone":"(051)256 068","mobile":"(098)546 561","long":"14.348611","lat":"45.375278","abbr":"KST"},{"name":"Novigrad","county":"Istarska","zipcode":"52466","city":"Novigrad","address":"Veliki trg 1","email":"sonelasegon@gmail.com","phone":"(099)683 3821","mobile":"(099)683 3821","long":"16.953889","lat":"46.078056","abbr":"NVG"},{"name":"Opatija","county":"Prim.-gor.Istra i Primorje","zipcode":"51410","city":"Opatija","address":"Drage Gervaisa 1","email":"5tenisopatija1931@gmail.com","phone":"(051)271 075","website":"www.tenisklubopatija.hr","long":"14.308333","lat":"45.339167","abbr":"OPA"},{"name":"Losinj-Jadranka","county":"Prim.-gor.Istra i Primorje","zipcode":"51550","city":"Mali Losinj","address":"Suncana uvala bb","email":"jadranko.visak@ri.t-com.hr","phone":"cana uvala bb(051)232 014","mobile":"(098)259 248","long":"14.468611","lat":"44.530556","abbr":"LJD"},{"name":"Ogulin","county":"KarlovackaSredisnja","zipcode":"47300","city":"Ogulin","address":"Bolnicka bb","email":"zsug.ogulina@ka.t-com.hr","phone":"cka bb(047)531 970","mobile":"(091)152 2584","long":"15.228611","lat":"45.266111","abbr":"OG"},{"name":"Bale","county":"Istarska","zipcode":"52211","city":"Bale","address":"Grote 64","email":"sreckod@net.hr","phone":"(052)824 389","mobile":"(099)686 389","long":"13.783611","lat":"45.040556","abbr":"BAL"},{"name":"Rukavac","county":"Prim.-gor.Istra i Primorje","zipcode":"51211","city":"Matulji","address":"Rukavac 70","email":"sepic_marko@yahoo.com","phone":"(051)276 531","mobile":"(098)275 678","long":"14.325","lat":"45.361667","abbr":"RUK"}],"surface":"clay"},{"name":"A. Walker Allen","context":377,"ranking":75,"round":"R16","rung":3,"category":"12","draw":32,"rank":"1111.111111111111","lat":"45.8","long":"16","date":"2015-03-13T23:00:00.000Z","yr":2015,"tourn":"DV. OP PONIKVA - TTK WARRIORS TOUR 2015","clubs":[{"name":"Split","county":"Split.-dalm.","zipcode":"21000","city":"Split","address":"Put Firula 18","email":"tenis.klub.split@st.t-com.hr","phone":"(021)389 576","mobile":"(091)438 9576","website":"www.tk-split.hr","long":"16.455833","lat":"43.513889","abbr":"ST"},{"name":"Kastav","county":"Prim.-gor.Istra i Primorje","zipcode":"51215","city":"Kastav","address":"Rudno bb","email":"juracic1@gmail.com","phone":"(051)256 068","mobile":"(098)546 561","long":"14.348611","lat":"45.375278","abbr":"KST"},{"name":"Varazdin 1181","county":"VarazdinskaSjeverozapadna","zipcode":"42000","city":"Varazdin","address":"Miroslava Krleze 1a","email":"14 940lovro_juzbasic@net.hr","phone":"(095)905 1084","mobile":"(095)905 1084","website":"www.tk-varazdin1181.hr  ","long":"16.337778","lat":"46.304444","abbr":"VZD"},{"name":"Franjo Puncec","county":"MedimurskaSjeverozapadna","zipcode":"40000","city":"Cakovec","address":"Teniski park 1","email":"puncectenis@gmail.com","phone":"(040)312 186","mobile":"(098)706 157","website":"www.puncec-tenis.com","long":"16.433889","lat":"46.384444","abbr":"PUN"},{"name":"Pro 2000","county":"IstarskaIstra i Primorje","zipcode":"52450","city":"Porec","address":"Trg trsine 10","email":"juraj.dusparic@hotmail.com","phone":"(052)442 013","mobile":"(091)518 8208","long":"17.928056","lat":"45.367778","abbr":"PRO"},{"name":"Zagi","county":"Gr. ZagrebZagreb","zipcode":"10000","city":"Zagreb","address":"Havidiceva 38","email":"zagi_sport@inet.hr","phone":"ceva 38(01)665 8448","mobile":"(091)660 0811","website":"www.zagi-sport.hr","long":"16","lat":"45.8","abbr":"ZGI"},{"name":"Vrbovec","county":"Zup.zagreb.Sredisnja","zipcode":"20340","city":"Vrbovec","address":"Sajmisna bb - p.p. 38","email":"9 1293ivor.koretic@gmail.com","phone":"(01)279 1293","mobile":"(095)913 3698","long":"15.766667","lat":"45.816667","abbr":"VRB"},{"name":"Chromos-Savica","county":"Gr. ZagrebZagreb","zipcode":"10000","city":"Zagreb","address":"Prisavlje bb","email":"dsrt@zg.t-com.hr","phone":"(01)604 3006","mobile":"(091)220 5660","long":"16","lat":"45.8","abbr":"CHS"},{"name":"HTK Zagreb","county":"Gr. ZagrebZagreb","zipcode":"10000","city":"Zagreb","address":"Metalceva bb","email":"htk.zagreb@zg.t-com.hr","phone":"ceva bb(01)301 1045","mobile":"(098)275 319","long":"16","lat":"45.8","abbr":"HTK"},{"name":"Stobrec","county":"Split.-dalm.Dalmacija","zipcode":"21311","city":"Stobrec","address":"Put svetog Lovre 45b","email":"tc-stobrec@st.t-com.hr","phone":"(021)325 064","long":"16.522222","lat":"43.5025","abbr":"STO"},{"name":"Vulpes","county":"Gr. ZagrebZagreb","zipcode":"10000","city":"Zagreb","address":"Nova cesta 44","email":"darija.deskovic@zg.t-com.hr","phone":"(01)382 1309","mobile":"(098)354 777","long":"16","lat":"45.8","abbr":"VUL"},{"name":"San Spin","county":"Gr. ZagrebZagreb","zipcode":"10040","city":"Zagreb","address":"Mirosevecina 2","email":"san-spin@zg.htnet.hr","phone":"cina 2(01)298 5363","mobile":"(091)171 4239","website":"www.san-spin.hr","long":"16","lat":"45.8","abbr":"SSP"},{"name":"Top Spin","county":"Gr. ZagrebZagreb","zipcode":"10000","city":"Zagreb","address":"Vlaska 83/1","email":"office@topspin.hr   ","phone":"(01)369 3690","mobile":"(098)980 6031 ","website":"www.tktopspin.hr.","long":"16","lat":"45.8","abbr":"TSP"},{"name":"Iteam","county":"Gr. ZagrebZagreb","zipcode":"10000","city":"Zagreb","address":"Vrbaniceva 31","email":"teniskiklub.iteam@gmail.com","phone":"ceva 31(091)569 7447","mobile":"(098) 824 003","long":"16","lat":"45.8","abbr":"ITE"},{"name":"Terra","county":"Gr. ZagrebZagreb","zipcode":"10000","city":"Zagreb","address":"Veslacka 23","email":"miljenko.marjanovic@zg.t-com.hr","phone":"cka 23(01)363 4854","mobile":"(091)886 6901","website":"www.tkterra.com","long":"16","lat":"45.8","abbr":"TER"}],"surface":"clay"},{"name":"A. Walker Allen","context":381,"ranking":75,"round":"R32","rung":2,"category":"12","draw":32,"rank":"1111.111111111111","lat":"45.8","long":"16","date":"2015-03-06T23:00:00.000Z","yr":2015,"tourn":"Dv. OP NTC-a","clubs":[{"name":"Vulpes","county":"Gr. ZagrebZagreb","zipcode":"10000","city":"Zagreb","address":"Nova cesta 44","email":"darija.deskovic@zg.t-com.hr","phone":"(01)382 1309","mobile":"(098)354 777","long":"16","lat":"45.8","abbr":"VUL"},{"name":"HTK Zagreb","county":"Gr. ZagrebZagreb","zipcode":"10000","city":"Zagreb","address":"Metalceva bb","email":"htk.zagreb@zg.t-com.hr","phone":"ceva bb(01)301 1045","mobile":"(098)275 319","long":"16","lat":"45.8","abbr":"HTK"},{"name":"Precko","county":"Gr. Zagreb","zipcode":"10000","city":"Zagreb","address":"Dekanici bb","email":"tenis.klub.precko@zg.t-com.hr","phone":"ci bb(01)388 5495","mobile":"(091)501 5457","long":"16","lat":"45.8","abbr":"PRE"},{"name":"Chromos","county":"Gr. ZagrebZagreb","zipcode":"10000","city":"Zagreb","address":"Prisavlje 22","email":"teniski.klub.chromos@zg.t-com.hr","phone":"(01)604 3003","mobile":"(098)278 957","long":"16","lat":"45.8","abbr":"CHR"},{"name":"Samobor 1890","county":"Zup.zagreb.Sredisnja","zipcode":"10430","city":"Samobor","address":"Josipa Jelacica 30","email":"tk.samobor@optinet.hr","phone":"cica 30(01)336 3501","mobile":"(098)218 755","long":"15.718056","lat":"45.803056","abbr":"SAM"},{"name":"Olimpija Osijek 1984","county":"Osjecko.-baSlavonija","zipcode":"31000","city":"Osijek","address":"Ulica Olimpije 2","email":"wagnerdomagoj@gmail.com","phone":"(095)701 0001","mobile":"(095)701 0001","long":"16.55","lat":"46.133333","abbr":"OLI"},{"name":"Varazdin 1181","county":"VarazdinskaSjeverozapadna","zipcode":"42000","city":"Varazdin","address":"Miroslava Krleze 1a","email":"14 940lovro_juzbasic@net.hr","phone":"(095)905 1084","mobile":"(095)905 1084","website":"www.tk-varazdin1181.hr  ","long":"16.337778","lat":"46.304444","abbr":"VZD"},{"name":"Ogulin","county":"KarlovackaSredisnja","zipcode":"47300","city":"Ogulin","address":"Bolnicka bb","email":"zsug.ogulina@ka.t-com.hr","phone":"cka bb(047)531 970","mobile":"(091)152 2584","long":"15.228611","lat":"45.266111","abbr":"OG"},{"name":"Mladost-Akademicar","county":"Gr. ZagrebZagreb","zipcode":"10000","city":"Zagreb","address":"Jarunska 5","email":"tajnistvo@hatk-mladost-akademicar.hr","phone":"(099)235 5255","mobile":"(099)235 5255","long":"16","lat":"45.8","abbr":"MAK"},{"name":"Chromos-Savica","county":"Gr. ZagrebZagreb","zipcode":"10000","city":"Zagreb","address":"Prisavlje bb","email":"dsrt@zg.t-com.hr","phone":"(01)604 3006","mobile":"(091)220 5660","long":"16","lat":"45.8","abbr":"CHS"},{"name":"Purger","county":"Gr. ZagrebZagreb","zipcode":"10020","city":"Zagreb","address":"Remetinecka cesta 64a","email":"ikpurger@gmail.com","phone":"cka cesta 64a(01)652 8847","mobile":"(098)257 894","long":"16","lat":"45.8","abbr":"PUR"},{"name":"Iteam","county":"Gr. ZagrebZagreb","zipcode":"10000","city":"Zagreb","address":"Vrbaniceva 31","email":"teniskiklub.iteam@gmail.com","phone":"ceva 31(091)569 7447","mobile":"(098) 824 003","long":"16","lat":"45.8","abbr":"ITE"},{"name":"Losinj-Jadranka","county":"Prim.-gor.Istra i Primorje","zipcode":"51550","city":"Mali Losinj","address":"Suncana uvala bb","email":"jadranko.visak@ri.t-com.hr","phone":"cana uvala bb(051)232 014","mobile":"(098)259 248","long":"14.468611","lat":"44.530556","abbr":"LJD"},{"name":"Ivan Merz","county":"Gr. ZagrebZagreb","zipcode":"10000","city":"Zagreb","address":"Ante Mike Tripala 1","email":"236alan.kolakovic@yahoo.com","phone":"(01)662 3236","mobile":"(091)111 5155","website":"www.samosport.hr","long":"16","lat":"45.8","abbr":"IMZ"},{"name":"Top Spin","county":"Gr. ZagrebZagreb","zipcode":"10000","city":"Zagreb","address":"Vlaska 83/1","email":"office@topspin.hr   ","phone":"(01)369 3690","mobile":"(098)980 6031 ","website":"www.tktopspin.hr.","long":"16","lat":"45.8","abbr":"TSP"},{"name":"Stobrec","county":"Split.-dalm.Dalmacija","zipcode":"21311","city":"Stobrec","address":"Put svetog Lovre 45b","email":"tc-stobrec@st.t-com.hr","phone":"(021)325 064","long":"16.522222","lat":"43.5025","abbr":"STO"},{"name":"Neptun 2008","county":"Osjecko.-baSlavonija","zipcode":"31000","city":"Osijek","address":"Naselje Vladimira Nazora 14","email":"sapejic@gmail.com","phone":"(031) 207 553","long":"16.55","lat":"46.133333","abbr":"NEP"},{"name":"Medvescak","county":"Gr. ZagrebZagreb","zipcode":"10000","city":"Zagreb","address":"Schlosserove stube 2","email":"8003tk-medvescak@tk-medvescak.hr","phone":"(01)455 0657","mobile":"(091)568 4958","website":"www.tk-medvescak.hr","long":"16","lat":"45.8","abbr":"MDV"},{"name":"Zagi","county":"Gr. ZagrebZagreb","zipcode":"10000","city":"Zagreb","address":"Havidiceva 38","email":"zagi_sport@inet.hr","phone":"ceva 38(01)665 8448","mobile":"(091)660 0811","website":"www.zagi-sport.hr","long":"16","lat":"45.8","abbr":"ZGI"}],"surface":"hardcourt"},{"name":"A. Walker Allen","context":389,"ranking":null,"round":"R16","rung":3,"category":"12","draw":32,"rank":"1111.111111111111","lat":"44.119722","long":"15.242222","date":"2015-02-20T23:00:00.000Z","yr":2015,"tourn":"DV.OP TK DALMACIJA","clubs":[{"name":"Split","county":"Split.-dalm.","zipcode":"21000","city":"Split","address":"Put Firula 18","email":"tenis.klub.split@st.t-com.hr","phone":"(021)389 576","mobile":"(091)438 9576","website":"www.tk-split.hr","long":"16.455833","lat":"43.513889","abbr":"ST"},{"name":"Neptun 2008","county":"Osjecko.-baSlavonija","zipcode":"31000","city":"Osijek","address":"Naselje Vladimira Nazora 14","email":"sapejic@gmail.com","phone":"(031) 207 553","long":"16.55","lat":"46.133333","abbr":"NEP"},{"name":"Dalmacija","county":"ZadarskaDalmacija","zipcode":"23206","city":"Sukosan","address":"Sukosan XXX 40","email":"marina_nincevic@hotmail.com","long":"15.315556","lat":"44.046667","abbr":"DLM"},{"name":"Zadar 08","county":"ZadarskaDalmacija","zipcode":"23000","city":"Zadar","address":"Frana Supila 16","email":"lovro_r@yahoo.com","phone":"(098)172 0228","mobile":"(098)172 0228","long":"15.242222","lat":"44.119722","abbr":"ZAD"},{"name":"Stobrec","county":"Split.-dalm.Dalmacija","zipcode":"21311","city":"Stobrec","address":"Put svetog Lovre 45b","email":"tc-stobrec@st.t-com.hr","phone":"(021)325 064","long":"16.522222","lat":"43.5025","abbr":"STO"},{"name":"Ivan Merz","county":"Gr. ZagrebZagreb","zipcode":"10000","city":"Zagreb","address":"Ante Mike Tripala 1","email":"236alan.kolakovic@yahoo.com","phone":"(01)662 3236","mobile":"(091)111 5155","website":"www.samosport.hr","long":"16","lat":"45.8","abbr":"IMZ"},{"name":"Ogulin","county":"KarlovackaSredisnja","zipcode":"47300","city":"Ogulin","address":"Bolnicka bb","email":"zsug.ogulina@ka.t-com.hr","phone":"cka bb(047)531 970","mobile":"(091)152 2584","long":"15.228611","lat":"45.266111","abbr":"OG"},{"name":"Brela","county":"Split.-dalmDalmacija","zipcode":"21322","city":"Brela","address":"Trg zrtava domovinskog rata 1","email":"jasmin.likic1@st.t-com.hr","phone":"(021)612 502","mobile":"(091)894 8867","long":"16.934167","lat":"43.368889","abbr":"BRL"},{"name":"Poen","county":"Split.-dalm.Dalmacija","zipcode":"21300","city":"Makarska","address":"Breljanska 4","email":"tkpoen@gmail.com","phone":"(091)334 1410","mobile":"(098)923 0738","long":"17.017778","lat":"43.296944","abbr":"POE"}],"surface":"hardcourt"},{"name":"A. Walker Allen","context":397,"ranking":null,"round":"QF","rung":4,"category":"12","draw":16,"rank":"888.8888888888888","lat":"43.55","long":"16.5","date":"2015-02-06T23:00:00.000Z","yr":2015,"tourn":"Dv. OP Solina","clubs":[{"name":"Split","county":"Split.-dalm.","zipcode":"21000","city":"Split","address":"Put Firula 18","email":"tenis.klub.split@st.t-com.hr","phone":"(021)389 576","mobile":"(091)438 9576","website":"www.tk-split.hr","long":"16.455833","lat":"43.513889","abbr":"ST"},{"name":"Stobrec","county":"Split.-dalm.Dalmacija","zipcode":"21311","city":"Stobrec","address":"Put svetog Lovre 45b","email":"tc-stobrec@st.t-com.hr","phone":"(021)325 064","long":"16.522222","lat":"43.5025","abbr":"STO"},{"name":"Resnik","county":"Split.-dalmDalmacija","zipcode":"21217","city":"Kastel Stafilic","address":"Njiva sv. Petra 6","email":"info@tenis-klub-resnik.hr","phone":"(091)250 5008","mobile":"(091)520 3425","long":"16.333333","lat":"43.55","abbr":"RES"},{"name":"Dalmacijacement","county":"Split.-dalm.Dalmacija","zipcode":"21210","city":"Solin","address":"Marka Marulica 24","email":"tenis.dc@email.t-com.hr","phone":"ca 24(021)212 442","mobile":"(098)370 982","website":"www.tenis-dalmacijacement.com","long":"16.5","lat":"43.55","abbr":"DCE"},{"name":"Zadar 08","county":"ZadarskaDalmacija","zipcode":"23000","city":"Zadar","address":"Frana Supila 16","email":"lovro_r@yahoo.com","phone":"(098)172 0228","mobile":"(098)172 0228","long":"15.242222","lat":"44.119722","abbr":"ZAD"},{"name":"Ogulin","county":"KarlovackaSredisnja","zipcode":"47300","city":"Ogulin","address":"Bolnicka bb","email":"zsug.ogulina@ka.t-com.hr","phone":"cka bb(047)531 970","mobile":"(091)152 2584","long":"15.228611","lat":"45.266111","abbr":"OG"}],"surface":"clay"}],"yr":"2015"}'
